[
    { "city": "Mumbai", "latitude": 19.0760, "longitude": 72.8777 },
    { "city": "Delhi", "latitude": 28.6139, "longitude": 77.2090 },
    { "city": "Bangalore", "latitude": 12.9716, "longitude": 77.5946 },
    { "city": "Hyderabad", "latitude": 17.3850, "longitude": 78.4867 },
    { "city": "Chennai", "latitude": 13.0827, "longitude": 80.2707 },
    { "city": "Kolkata", "latitude": 22.5726, "longitude": 88.3639 },
    { "city": "Pune", "latitude": 18.5204, "longitude": 73.8567 },
    { "city": "Jaipur", "latitude": 26.9124, "longitude": 75.7873 },
    { "city": "Lucknow", "latitude": 26.8467, "longitude": 80.9462 },
    { "city": "Agra", "latitude": 27.1767, "longitude": 78.0081 },
    { "city": "Ahmedabad", "latitude": 23.0225, "longitude": 72.5714 },
    { "city": "Surat", "latitude": 21.1702, "longitude": 72.8311 },
    { "city": "Vadodara", "latitude": 22.3074, "longitude": 73.1812 },
    { "city": "Indore", "latitude": 22.7196, "longitude": 75.8577 },
    { "city": "Bhopal", "latitude": 23.2599, "longitude": 77.4126 },
    { "city": "Patna", "latitude": 25.5941, "longitude": 85.1376 },
    { "city": "Gwalior", "latitude": 26.2183, "longitude": 78.1828 },
    { "city": "Nashik", "latitude": 19.9975, "longitude": 73.7898 },
    { "city": "Nagpur", "latitude": 21.1458, "longitude": 79.0882 },
    { "city": "Kanpur", "latitude": 26.4499, "longitude": 80.3319 },
    { "city": "Meerut", "latitude": 28.9845, "longitude": 77.7066 },
    { "city": "Ranchi", "latitude": 23.3441, "longitude": 85.3096 },
    { "city": "Jabalpur", "latitude": 23.1645, "longitude": 79.9500 },
    { "city": "Vijayawada", "latitude": 16.5062, "longitude": 80.6480 },
    { "city": "Chandigarh", "latitude": 30.7333, "longitude": 76.7794 },
    { "city": "Shimla", "latitude": 31.1048, "longitude": 77.1734 },
    { "city": "Dehradun", "latitude": 30.3165, "longitude": 78.0322 },
    { "city": "Udaipur", "latitude": 24.5797, "longitude": 73.7125 },
    { "city": "Coimbatore", "latitude": 11.0168, "longitude": 76.9558 },
    { "city": "Trivandrum", "latitude": 8.5241, "longitude": 76.9366 },
    { "city": "Mysore", "latitude": 12.2958, "longitude": 76.6394 },
    { "city": "Madurai", "latitude": 9.9251, "longitude": 78.1198 },
    { "city": "Tiruchirappalli", "latitude": 10.7905, "longitude": 78.7047 },
    { "city": "Salem", "latitude": 11.6643, "longitude": 78.1460 }
]
